,City,Lat,Long,Temp. Max,Humidity,Cloudiness,Windspeed,description,Country
0,punta arenas,-53.15,-70.9167,32.0,69,75,8.05,broken clouds,CL
1,kangaba,11.9333,-8.4167,91.9,41,80,3.22,broken clouds,ML
2,kodiak,57.79,-152.4072,39.2,87,90,14.97,light rain,US
3,guilin,25.2819,110.2864,80.6,78,75,8.95,broken clouds,CN
4,zhezkazgan,47.8043,67.7144,73.4,11,100,10.38,overcast clouds,KZ
5,atuona,-9.8,-139.0333,80.38,76,95,13.89,overcast clouds,PF
6,marystown,47.1666,-55.1483,40.84,92,100,9.86,overcast clouds,CA
7,kaitangata,-46.2817,169.8464,50.0,80,0,1.99,clear sky,NZ
8,rikitea,-23.1203,-134.9692,78.3,81,78,9.44,broken clouds,PF
9,seoul,37.5683,126.9778,66.2,36,0,6.91,clear sky,KR
10,torbay,47.6666,-52.7314,43.0,93,90,14.97,light rain,CA
11,tevaitoa,-16.7833,-151.5,82.02,66,87,5.84,overcast clouds,PF
12,san quintin,30.4833,-115.95,45.0,10,16,10.0,few clouds,MX
13,faya,18.3851,42.4509,78.8,49,40,11.5,scattered clouds,SA
14,tuatapere,-46.1333,167.6833,48.0,82,30,1.01,scattered clouds,NZ
15,kalmunai,7.4167,81.8167,87.35,63,61,9.13,broken clouds,LK
16,sitka,57.0531,-135.33,48.2,61,90,11.5,light rain,US
17,saldanha,-33.0117,17.9442,86.0,36,0,18.41,clear sky,ZA
18,cape town,-33.9258,18.4232,84.2,21,0,8.05,clear sky,ZA
19,sokoni,-6.4333,39.55,77.0,94,75,20.71,moderate rain,TZ
20,mount gambier,-37.8333,140.7667,50.0,93,90,10.36,overcast clouds,AU
21,karaton,-6.3424,106.1045,89.01,70,20,11.5,light rain,ID
22,ushuaia,-54.8,-68.3,32.0,93,40,24.16,scattered clouds,AR
23,balkanabat,39.5108,54.3671,76.87,27,90,2.66,overcast clouds,TM
24,puri,19.8,85.85,96.8,41,40,9.22,scattered clouds,IN
25,makat,47.6469,53.3463,80.06,20,69,1.3,broken clouds,KZ
26,broome,42.2506,-75.833,50.0,87,1,8.05,clear sky,US
27,busselton,-33.65,115.3333,64.0,75,85,10.87,overcast clouds,AU
28,pemangkat,1.1667,108.9667,83.95,73,88,8.86,overcast clouds,ID
29,hermanus,-34.4187,19.2345,88.0,25,0,1.01,clear sky,ZA
30,upernavik,72.7868,-56.1549,22.46,69,58,6.64,broken clouds,GL
31,albany,42.6001,-73.9662,50.0,83,100,2.1,overcast clouds,US
32,vaini,-21.2,-175.2,73.4,78,90,9.22,overcast clouds,TO
33,pacific grove,36.6177,-121.9166,51.01,90,4,3.91,clear sky,US
34,vila,42.0304,-8.1588,61.0,51,1,1.01,clear sky,PT
35,bengkulu,-3.8004,102.2655,83.3,77,100,6.2,overcast clouds,ID
36,beaverlodge,55.2166,-119.4361,32.0,93,1,4.05,clear sky,CA
37,puerto escondido,15.85,-97.0667,77.99,74,92,7.25,overcast clouds,MX
38,tuktoyaktuk,69.4541,-133.0374,23.97,83,100,4.54,overcast clouds,CA
39,touros,-5.1989,-35.4608,75.2,88,20,4.61,few clouds,BR
40,georgetown,5.4112,100.3354,89.6,70,40,2.3,light rain,MY
41,cabedelo,-6.9811,-34.8339,75.2,88,0,5.75,clear sky,BR
42,ploemeur,47.7333,-3.4333,55.0,58,20,11.5,few clouds,FR
43,dwarka,22.2394,68.9678,87.62,54,53,14.74,broken clouds,IN
44,kamenka,51.3223,42.7678,75.99,42,100,1.99,light rain,RU
45,narrabri,-30.3167,149.7833,60.8,67,7,3.44,clear sky,AU
46,katsuura,35.1333,140.3,64.0,78,37,15.99,scattered clouds,JP
47,pokrovsk,48.282,37.1758,73.15,37,100,18.37,overcast clouds,UA
48,wenling,28.3669,121.36,73.99,67,99,7.14,overcast clouds,CN
49,ponta do sol,32.6667,-17.1,66.2,59,40,10.36,scattered clouds,PT
50,port alfred,-33.5906,26.891,77.11,41,0,11.03,clear sky,ZA
51,livingston,55.9029,-3.5226,46.4,66,20,10.36,light rain,GB
52,te anau,-45.4167,167.7167,44.8,90,19,5.35,few clouds,NZ
53,iqaluit,63.7506,-68.5145,28.4,74,40,10.36,scattered clouds,CA
54,newton,42.337,-71.2092,57.2,71,100,8.05,overcast clouds,US
55,labuan,5.2767,115.2417,86.0,74,20,4.61,heavy intensity rain,MY
56,thompson,55.7435,-97.8558,24.8,86,90,3.44,light snow,CA
57,ayan,56.45,138.1667,32.79,73,70,3.83,broken clouds,RU
58,puerto ayora,-0.7393,-90.3518,74.71,79,94,11.43,overcast clouds,EC
59,hvolsvollur,63.7533,-20.2243,41.0,56,0,4.61,clear sky,IS
60,north bend,43.4065,-124.2243,44.6,93,1,4.61,clear sky,US
61,hobart,-42.8794,147.3294,51.8,58,75,10.36,broken clouds,AU
62,laguna,38.421,-121.4238,64.4,36,1,16.11,clear sky,US
63,mataura,-46.1927,168.8643,48.0,82,1,1.01,clear sky,NZ
64,lar,26.2039,83.9717,104.43,14,72,9.28,broken clouds,IN
65,oban,56.4127,-5.4706,44.01,81,75,10.36,light rain,GB
66,sao filipe,14.8961,-24.4956,70.97,68,24,9.93,few clouds,CV
67,maragogi,-9.0122,-35.2225,74.8,87,92,7.87,overcast clouds,BR
68,east london,-33.0153,27.9116,75.2,53,0,9.22,clear sky,ZA
69,acapulco,16.8634,-99.8901,75.67,66,2,5.46,clear sky,MX
70,vardo,70.3705,31.1107,33.8,69,0,9.22,clear sky,NO
71,kiama,-34.6833,150.8667,69.01,70,89,5.01,overcast clouds,AU
72,samarai,-10.6167,150.6667,80.69,81,52,10.33,heavy intensity rain,PG
73,nanortalik,60.1432,-45.2371,40.55,54,100,26.84,overcast clouds,GL
74,nikolskoye,59.7035,30.7861,45.0,56,75,22.37,moderate rain,RU
75,olafsvik,64.8945,-23.7142,36.66,56,3,8.3,clear sky,IS
76,cockburn town,21.4612,-71.1419,78.51,74,82,20.38,broken clouds,TC
77,hasaki,35.7333,140.8333,64.4,42,40,6.91,scattered clouds,JP
78,vostok,46.4856,135.8833,39.72,61,62,6.89,broken clouds,RU
79,kitimat,54.0524,-128.6534,46.0,94,100,3.24,light rain,CA
80,mafinga,-7.25,35.0667,73.92,61,68,8.23,broken clouds,TZ
81,castro,-24.7911,-50.0119,54.28,90,0,2.82,clear sky,BR
82,yellowknife,62.456,-114.3525,19.4,53,20,6.91,few clouds,CA
83,pantai remis,4.4557,100.6288,89.6,70,20,4.61,few clouds,MY
84,hofn,64.2539,-15.2082,37.4,48,20,19.57,few clouds,IS
85,omsukchan,62.5333,155.8,14.59,96,6,1.45,clear sky,RU
86,namatanai,-3.6667,152.4333,80.92,78,43,1.59,scattered clouds,PG
87,paicol,2.4496,-75.775,66.33,97,100,1.03,moderate rain,CO
88,mujiayingzi,42.1167,118.7833,70.14,26,86,14.99,overcast clouds,CN
89,new norfolk,-42.7826,147.0587,46.99,71,86,1.99,overcast clouds,AU
90,saskylakh,71.9167,114.0833,30.47,92,100,9.22,overcast clouds,RU
91,qaanaaq,77.484,-69.3632,23.59,70,100,5.41,overcast clouds,GL
92,victoria,22.2855,114.1577,78.01,89,88,18.54,overcast clouds,HK
93,nyurba,63.2842,118.3319,42.75,82,88,2.08,overcast clouds,RU
94,hilo,19.7297,-155.09,71.6,83,20,3.44,light rain,US
95,chokurdakh,70.6333,147.9167,26.37,91,100,7.47,overcast clouds,RU
96,pervomayskiy,53.2485,40.2871,70.0,54,100,20.94,overcast clouds,RU
97,acarau,-2.8856,-40.12,76.41,88,92,7.27,heavy intensity rain,BR
98,mahebourg,-20.4081,57.7,84.2,74,40,12.66,scattered clouds,MU
99,lebu,-37.6167,-73.65,50.56,88,93,6.4,overcast clouds,CL
100,ostrovnoy,68.0531,39.5131,31.98,75,13,13.96,few clouds,RU
101,hambantota,6.1241,81.1185,86.22,67,73,8.97,broken clouds,LK
102,grand-santi,4.25,-54.3833,71.74,99,100,1.43,moderate rain,GF
103,cidreira,-30.1811,-50.2056,65.5,75,3,4.5,clear sky,BR
104,rio grande,-32.035,-52.0986,64.4,77,8,8.79,clear sky,BR
105,barra,-11.0894,-43.1417,72.12,66,66,2.82,broken clouds,BR
106,wiarton,44.7407,-81.1332,50.0,100,90,9.22,light rain,CA
107,porto novo,6.4965,2.6036,89.6,70,40,11.5,scattered clouds,BJ
108,cherskiy,68.75,161.3,19.29,90,17,6.51,few clouds,RU
109,ambilobe,-13.2,49.05,89.38,54,8,1.68,clear sky,MG
110,kapaa,22.0752,-159.319,75.2,73,90,12.66,overcast clouds,US
111,faanui,-16.4833,-151.75,81.23,70,16,4.68,few clouds,PF
112,akalgarh,29.8167,75.8833,103.51,12,19,8.88,few clouds,IN
113,fuling,29.7022,107.3919,75.13,82,99,1.52,overcast clouds,CN
114,airai,-8.9266,125.4092,60.01,90,78,3.89,broken clouds,TL
115,eisenerz,47.5333,14.8833,55.99,57,75,8.05,broken clouds,AT
116,constitucion,-35.3333,-72.4167,53.8,95,100,5.84,light rain,CL
117,frekhaug,60.5139,5.2435,46.0,62,100,1.01,overcast clouds,NO
118,necochea,-38.5473,-58.7368,58.95,87,100,3.38,light rain,AR
119,xai-xai,-25.0519,33.6442,75.51,52,53,11.61,broken clouds,MZ
120,puerto quijarro,-17.7833,-57.7667,70.74,85,16,0.89,few clouds,BO
121,provideniya,64.3833,-173.3,26.74,78,100,16.26,overcast clouds,RU
122,bogande,12.9714,-0.1436,98.26,30,14,13.4,few clouds,BF
123,dikson,73.5069,80.5464,31.73,86,89,13.98,overcast clouds,RU
124,hualmay,-11.0964,-77.6139,65.26,89,64,1.7,broken clouds,PE
125,clarence town,-32.5833,151.7833,66.2,88,0,9.22,clear sky,AU
126,broken hill,-31.95,141.4333,59.0,77,90,12.66,moderate rain,AU
127,butaritari,3.0707,172.7902,83.97,72,95,16.53,overcast clouds,KI
128,hamilton,39.1834,-84.5333,59.0,100,90,8.34,overcast clouds,US
129,barguzin,53.6167,109.6167,42.67,62,76,11.56,broken clouds,RU
130,rundu,-17.9333,19.7667,78.4,44,24,10.45,few clouds,NA
131,ilulissat,69.2167,-51.1,41.0,28,1,33.38,clear sky,GL
132,dutlwe,-23.9833,23.9,69.67,33,47,14.05,scattered clouds,BW
133,avarua,-21.2078,-159.775,75.2,78,75,9.22,broken clouds,CK
134,piracanjuba,-17.3028,-49.0167,57.49,79,0,5.32,clear sky,BR
135,avera,33.194,-82.5271,69.8,96,75,5.75,mist,US
136,palu,-0.8917,119.8707,77.97,95,99,0.96,overcast clouds,ID
137,leningradskiy,69.3833,178.4167,7.92,90,71,6.06,broken clouds,RU
138,adrar,20.5022,-10.0711,86.95,18,45,9.22,scattered clouds,MR
139,whitehorse,60.7161,-135.0538,33.8,64,75,6.91,broken clouds,CA
140,bredasdorp,-34.5322,20.0403,80.6,26,46,10.36,scattered clouds,ZA
141,santa maria,-29.6842,-53.8069,71.6,68,0,2.3,clear sky,BR
142,fortuna,40.5982,-124.1573,52.0,100,90,4.61,overcast clouds,US
143,markdorf,47.7167,9.4,52.0,66,20,8.05,few clouds,DE
144,aksarka,66.5606,67.7975,33.33,82,81,16.8,broken clouds,RU
145,usinsk,65.9939,57.5281,36.59,58,100,26.02,overcast clouds,RU
146,tiksi,71.6872,128.8694,29.7,90,100,5.57,overcast clouds,RU
147,bathsheba,13.2167,-59.5167,75.2,73,75,13.8,broken clouds,BB
148,komsomolskiy,40.4272,71.7189,87.8,22,73,6.91,broken clouds,UZ
149,praia da vitoria,38.7333,-27.0667,63.0,100,75,0.29,light intensity drizzle,PT
150,ampanihy,-24.7,44.75,78.64,38,26,10.42,scattered clouds,MG
151,grindavik,63.8424,-22.4338,37.4,56,0,10.36,clear sky,IS
152,baruun-urt,46.6806,113.2792,48.42,33,100,21.81,overcast clouds,MN
153,rawson,-43.3002,-65.1023,53.06,47,46,21.34,scattered clouds,AR
154,bluff,-46.6,168.3333,48.0,82,24,1.01,few clouds,NZ
155,tasiilaq,65.6145,-37.6368,33.8,60,3,10.36,clear sky,GL
156,ganta,7.3022,-8.5308,81.73,69,97,3.94,overcast clouds,LR
157,tomatlan,19.9333,-105.25,62.92,64,0,3.67,clear sky,MX
158,gawler,-34.6,138.7333,59.0,73,41,7.81,scattered clouds,AU
159,carnarvon,-24.8667,113.6333,64.4,77,90,10.36,moderate rain,AU
160,san carlos,9.6612,-68.5827,71.1,94,100,0.78,overcast clouds,VE
161,lompoc,34.6391,-120.4579,48.2,100,90,10.36,overcast clouds,US
162,marivan,35.5219,46.176,73.81,27,22,2.24,few clouds,IR
163,san matias,-16.3667,-58.4,71.44,85,81,4.34,broken clouds,BO
164,mar del plata,-38.0023,-57.5575,61.0,100,90,2.91,mist,AR
165,port elizabeth,-33.918,25.5701,73.4,49,0,6.91,clear sky,ZA
166,luderitz,-26.6481,15.1594,74.39,53,0,6.67,clear sky,NA
167,cambui,-22.6122,-46.0575,52.0,93,1,0.87,clear sky,BR
168,ust-uda,54.1742,103.0304,45.7,46,100,12.24,overcast clouds,RU
169,jacqueville,5.2052,-4.4146,84.2,79,20,13.8,few clouds,CI
170,namibe,-15.1961,12.1522,86.0,62,0,9.22,clear sky,AO
171,aklavik,68.2191,-135.0107,26.6,80,100,8.05,light snow,CA
172,newport,51.5877,-2.9984,53.01,86,100,1.99,light rain,GB
173,pilar,-9.5972,-35.9567,73.4,94,40,5.75,scattered clouds,BR
174,ancud,-41.8697,-73.8203,42.8,100,75,3.44,light rain,CL
175,gizo,-8.103,156.8419,83.21,73,40,5.5,scattered clouds,SB
176,saint-philippe,-21.3585,55.7679,82.4,74,90,3.44,light rain,RE
177,pundaguitan,6.3711,126.1689,82.89,77,100,15.28,overcast clouds,PH
178,coquimbo,-29.9533,-71.3436,51.8,87,20,10.36,few clouds,CL
179,shimanovsk,52.0,127.7,55.24,30,100,6.04,overcast clouds,RU
180,cartagena del chaira,1.3349,-74.8429,69.3,96,100,1.43,overcast clouds,CO
181,arraial do cabo,-22.9661,-42.0278,64.4,94,0,2.91,clear sky,BR
182,teeli,51.0333,90.2333,52.79,27,39,3.33,scattered clouds,RU
183,bardiyah,31.7561,25.0865,91.29,21,100,3.56,overcast clouds,LY
184,abalak,58.1286,68.5944,53.33,25,6,10.31,clear sky,RU
185,norman wells,65.282,-126.8329,30.2,80,20,5.75,few clouds,CA
186,bay roberts,47.5999,-53.2648,42.8,100,90,6.91,light rain,CA
187,batyrevo,55.0675,47.6111,61.72,66,99,18.66,overcast clouds,RU
188,rudbar,30.15,62.6,88.7,27,28,9.37,scattered clouds,AF
189,freeport,40.6576,-73.5832,59.0,82,1,3.44,clear sky,US
190,el alto,-4.2714,-81.2147,68.61,80,77,15.61,broken clouds,PE
191,dudinka,69.4058,86.1778,34.0,90,100,12.03,overcast clouds,RU
192,buchanan,5.8808,-10.0467,78.8,83,75,3.44,broken clouds,LR
193,semirom,31.4167,51.5667,60.8,22,100,9.26,overcast clouds,IR
194,nome,64.5011,-165.4064,39.2,65,90,10.36,overcast clouds,US
195,gat,31.61,34.7642,91.99,26,4,13.13,clear sky,IL
196,qui nhon,13.7667,109.2333,84.09,66,89,7.52,overcast clouds,VN
197,sampit,-2.5333,112.95,82.2,77,98,3.15,overcast clouds,ID
198,zaraza,9.3503,-65.3245,74.37,90,100,3.85,overcast clouds,VE
199,saint austell,50.3383,-4.7658,51.8,71,40,27.63,scattered clouds,GB
200,boyolangu,-8.1181,111.8935,80.13,83,60,5.57,broken clouds,ID
201,dhidhdhoo,6.8833,73.1,84.36,71,99,5.37,overcast clouds,MV
202,mitsamiouli,-11.3847,43.2844,82.56,74,18,10.47,light rain,KM
203,maniitsoq,65.4167,-52.9,35.78,54,0,10.09,clear sky,GL
204,sawakin,19.1059,37.3321,90.64,55,0,11.7,clear sky,SD
205,marsabit,2.3284,37.9899,78.62,49,93,14.76,overcast clouds,KE
206,auki,-8.7676,160.7034,78.15,85,39,2.89,scattered clouds,SB
207,vestmannaeyjar,63.4427,-20.2734,41.0,56,0,4.61,clear sky,IS
208,chuy,-33.6971,-53.4616,61.02,79,10,7.52,clear sky,UY
209,sunbury,-37.5833,144.7333,55.99,94,75,10.36,moderate rain,AU
210,vila do maio,15.1333,-23.2167,73.4,64,40,17.27,scattered clouds,CV
211,margate,51.3813,1.3862,55.0,58,100,1.99,overcast clouds,GB
212,palana,59.1167,159.9667,25.41,85,5,8.25,clear sky,RU
213,caraz,-9.0486,-77.81,56.68,91,76,0.47,broken clouds,PE
214,isangel,-19.55,169.2667,77.0,88,75,9.22,broken clouds,VU
215,zhurivka,50.5028,31.7849,53.6,50,20,17.9,few clouds,UA
216,ribeira grande,38.5167,-28.7,62.6,77,20,8.05,few clouds,PT
217,pandan,14.0453,124.1694,79.83,87,45,12.86,scattered clouds,PH
218,ratnagiri,16.9833,73.3,90.28,55,9,15.73,clear sky,IN
219,san patricio,28.017,-97.5169,75.99,100,75,9.22,broken clouds,US
220,kocevje,45.6433,14.8633,52.0,100,100,2.01,overcast clouds,SI
221,aksu,41.1231,80.2644,77.16,13,73,15.5,broken clouds,CN
222,arlit,18.7369,7.3853,104.34,3,2,7.23,clear sky,NE
223,waupun,43.6333,-88.7296,55.99,100,40,9.95,scattered clouds,US
224,bowen,-20.0167,148.2333,73.4,83,41,9.22,scattered clouds,AU
225,sterling,39.0062,-77.4286,66.0,72,90,5.75,moderate rain,US
226,tautira,-17.7333,-149.15,77.0,78,0,5.75,clear sky,PF
227,motygino,58.1831,94.7592,46.98,79,100,10.96,overcast clouds,RU
228,finnsnes,69.2296,17.9811,37.4,52,75,10.36,broken clouds,NO
229,trapani,37.8333,12.6667,66.0,94,20,4.61,few clouds,IT
230,labuhan,-6.8844,112.2051,83.8,73,23,10.74,few clouds,ID
231,fairbanks,64.8378,-147.7164,44.6,36,40,12.66,scattered clouds,US
232,grootfontein,-19.5667,18.1167,69.8,52,20,12.66,few clouds,NA
233,north adams,42.7009,-73.1087,46.4,93,90,1.77,overcast clouds,US
234,severo-kurilsk,50.6789,156.125,35.01,97,100,19.42,light rain,RU
235,jamestown,42.097,-79.2353,60.8,63,1,5.75,clear sky,US
236,port lincoln,-34.7333,135.8667,60.22,68,20,15.86,few clouds,AU
237,okha,53.5739,142.9478,30.06,88,99,19.13,overcast clouds,RU
238,byron bay,-28.65,153.6167,64.4,94,40,4.61,scattered clouds,AU
239,lata,40.1629,-8.3327,64.0,60,0,5.01,clear sky,PT
240,souillac,-20.5167,57.5167,84.2,74,40,12.66,light rain,MU
241,inhambane,-23.865,35.3833,75.2,69,75,9.22,broken clouds,MZ
242,siuna,13.7332,-84.7773,67.96,97,57,0.67,broken clouds,NI
243,caronport,50.4501,-105.8179,23.0,86,93,8.05,overcast clouds,CA
244,luanda,-8.8368,13.2343,77.0,94,75,10.36,moderate rain,AO
245,maneadero,31.7167,-116.5667,57.0,83,28,2.84,scattered clouds,MX
246,marzuq,14.4,46.4667,82.9,41,78,7.94,broken clouds,YE
247,codrington,-38.2667,141.9667,50.04,85,100,15.88,light rain,AU
248,bend,44.0582,-121.3153,36.0,80,1,5.75,clear sky,US
249,dicabisagan,17.0818,122.4157,80.55,80,26,7.18,scattered clouds,PH
250,quimper,48.0,-4.1,53.6,54,75,13.8,broken clouds,FR
251,arkhipo-osipovka,44.37,38.52,67.93,62,51,5.95,broken clouds,RU
252,nouadhibou,20.931,-17.0347,68.0,64,0,24.16,clear sky,MR
253,severo-yeniseyskiy,60.3725,93.0408,36.23,98,100,10.18,overcast clouds,RU
254,narsaq,60.9167,-46.05,42.8,26,75,36.82,light snow,GL
255,esperance,-33.8667,121.9,64.4,68,40,11.5,scattered clouds,AU
256,kamina,-8.7386,24.9906,75.63,66,90,9.8,overcast clouds,CD
257,valcourt,45.5001,-72.3158,39.2,48,90,4.61,overcast clouds,CA
258,ikorodu,6.6191,3.5041,87.8,74,75,6.91,broken clouds,NG
259,mayumba,-3.432,10.6554,83.14,76,98,5.1,overcast clouds,GA
260,skegness,53.1436,0.3363,52.0,62,90,14.97,overcast clouds,GB
261,turukhansk,65.8167,87.9833,32.88,99,100,10.71,snow,RU
262,mahibadhoo,3.7833,72.9667,84.85,68,99,7.56,overcast clouds,MV
263,senador jose porfirio,-2.5908,-51.9542,72.07,94,45,1.3,scattered clouds,BR
264,ambon,-3.6954,128.1814,77.0,94,40,4.61,scattered clouds,ID
265,sabzevar,36.2126,57.6819,62.6,88,90,16.11,overcast clouds,IR
266,cabo san lucas,22.8909,-109.9124,68.0,41,0,16.64,clear sky,MX
267,nantucket,41.2835,-70.0995,53.6,87,1,5.75,clear sky,US
268,saint george,37.1041,-113.5841,59.0,47,1,6.91,clear sky,US
269,barrow,71.2906,-156.7887,17.6,73,90,1.12,overcast clouds,US
270,hithadhoo,-0.6,73.0833,83.23,73,99,19.06,overcast clouds,MV
271,srednekolymsk,67.45,153.6833,22.95,89,29,4.99,scattered clouds,RU
272,bambous virieux,-20.3428,57.7575,84.2,74,40,12.66,scattered clouds,MU
273,guaruja,-23.9931,-46.2564,69.01,26,10,3.69,clear sky,BR
274,wuwei,37.9281,102.6414,55.81,22,93,15.48,overcast clouds,CN
275,muscat,23.6139,58.5922,87.8,79,75,11.5,broken clouds,OM
276,harwich,51.9419,1.2844,53.01,67,100,11.01,overcast clouds,GB
277,abha,18.2164,42.5053,78.8,49,40,11.5,scattered clouds,SA
278,boden,65.8252,21.6886,41.0,65,40,6.91,scattered clouds,SE
279,dina,52.9335,-110.0849,23.0,86,1,2.3,clear sky,CA
280,tamandare,-8.7597,-35.1047,75.94,83,91,8.52,overcast clouds,BR
281,pingzhuang,42.0372,119.2889,73.2,25,97,16.22,overcast clouds,CN
282,oyama,36.3,139.8,71.01,45,75,4.61,broken clouds,JP
283,tigpalay,7.4939,122.3431,82.69,75,21,1.66,light rain,PH
284,huanren,41.2647,125.3667,53.65,49,11,8.95,few clouds,CN
285,nemuro,43.3236,145.575,39.2,70,75,4.61,moderate rain,JP
286,batemans bay,-35.7167,150.1833,53.01,85,92,4.41,moderate rain,AU
287,honningsvag,70.9821,25.9704,41.0,52,20,1.14,few clouds,NO
288,lagoa,39.05,-27.9833,62.4,78,100,9.91,overcast clouds,PT
289,mogadishu,2.0371,45.3438,87.8,62,40,11.5,scattered clouds,SO
290,sakakah,29.9697,40.2064,91.4,10,0,17.27,clear sky,SA
291,coihaique,-45.5752,-72.0662,36.37,93,87,4.43,overcast clouds,CL
292,ukiah,39.1502,-123.2078,51.8,76,1,4.18,clear sky,US
293,svetlogorsk,52.6333,29.7333,42.75,73,100,20.07,overcast clouds,BY
294,pevek,69.7008,170.3133,4.08,99,35,6.78,scattered clouds,RU
295,harrison,30.4091,-89.0436,75.2,94,90,9.22,overcast clouds,US
296,muroto,33.2833,134.15,64.4,42,0,4.61,clear sky,JP
297,morondava,-20.2833,44.2833,80.15,58,0,16.96,clear sky,MG
298,kokkola,63.8385,23.1307,44.6,45,0,8.05,clear sky,FI
299,barpali,21.2,83.5833,100.92,17,82,12.1,broken clouds,IN
300,singaparna,-7.3515,108.111,78.6,84,99,1.86,overcast clouds,ID
301,tezu,27.9167,96.1667,86.22,48,76,3.58,light rain,IN
302,vilhena,-12.7406,-60.1458,65.98,98,14,2.35,few clouds,BR
303,riyadh,24.6877,46.7219,93.2,15,1,10.42,dust,SA
304,deputatskiy,69.3,139.9,28.29,96,97,2.77,overcast clouds,RU
305,blairmore,49.6,-114.4353,35.6,100,69,3.44,broken clouds,CA
306,klaksvik,62.2266,-6.589,41.0,75,40,17.27,scattered clouds,FO
307,gusau,12.1628,6.6614,97.12,20,92,6.33,overcast clouds,NG
308,chiredzi,-21.05,31.6667,75.92,38,28,7.87,scattered clouds,ZW
309,makkaveyevo,51.7533,113.9454,48.2,43,20,17.9,few clouds,RU
310,shingu,33.7333,135.9833,62.6,55,20,5.75,few clouds,JP
311,henderson,36.0397,-114.9819,69.8,24,1,11.5,clear sky,US
312,balaipungut,1.05,101.2833,78.8,89,40,2.42,heavy intensity rain,ID
313,dakar,14.6937,-17.4441,69.8,83,20,9.22,few clouds,SN
314,caravelas,-17.7125,-39.2481,72.72,84,100,2.59,overcast clouds,BR
315,korla,41.7597,86.1469,66.56,15,100,18.21,overcast clouds,CN
316,simdega,22.6167,84.5167,96.64,18,94,6.04,overcast clouds,IN
317,zalari,53.5584,102.5065,48.02,40,100,12.75,overcast clouds,RU
318,ketchikan,55.3422,-131.6461,44.6,93,90,9.22,moderate rain,US
319,znin,52.8496,17.7199,48.2,61,40,11.5,scattered clouds,PL
320,sidi ali,36.0998,0.4206,65.61,64,13,12.26,few clouds,DZ
321,palmer,42.1584,-72.3287,51.01,100,75,3.44,broken clouds,US
322,katobu,-4.9408,122.5276,79.2,77,25,5.66,scattered clouds,ID
323,khatanga,71.9667,102.5,33.1,83,99,11.77,overcast clouds,RU
324,portland,45.5234,-122.6762,48.0,82,100,1.28,overcast clouds,US
325,mildura,-34.2,142.15,59.0,63,96,4.61,overcast clouds,AU
326,pisco,-13.7,-76.2167,64.4,88,90,2.3,overcast clouds,PE
327,nuuk,64.1835,-51.7216,44.6,29,20,4.61,few clouds,GL
328,inta,66.0317,60.1659,36.25,70,98,22.44,overcast clouds,RU
329,banavar,13.4136,76.1683,95.09,23,55,8.52,broken clouds,IN
330,brownsville,25.9018,-97.4975,75.99,88,1,12.66,clear sky,US
331,kumluca,36.3703,30.2869,84.67,39,44,4.9,scattered clouds,TR
332,pinega,64.7001,43.3936,45.18,25,0,3.62,clear sky,RU
333,polson,47.6936,-114.1632,34.0,99,22,2.62,few clouds,US
334,trelleborg,55.3751,13.1569,48.0,87,75,11.5,broken clouds,SE
335,comodoro rivadavia,-45.8667,-67.5,44.6,76,90,16.11,light rain,AR
336,clayton,33.5335,-84.3666,69.8,73,90,9.22,overcast clouds,US
337,karla,59.3723,24.9275,44.01,42,0,16.11,clear sky,EE
338,keetmanshoop,-26.5833,18.1333,71.6,37,0,17.27,clear sky,NA
339,bethel,41.3712,-73.414,52.0,82,1,2.06,clear sky,US
340,figeac,44.75,1.9167,57.0,46,0,4.61,clear sky,FR
341,nalut,30.3333,10.85,94.21,3,77,6.04,broken clouds,LY
342,vanavara,60.34,102.2797,41.23,74,100,6.93,overcast clouds,RU
343,qasigiannguit,68.8193,-51.1922,41.0,28,1,33.38,clear sky,GL
344,yulara,-25.2406,130.9889,77.0,29,86,16.11,overcast clouds,AU
345,yumen,40.2833,97.2,59.05,7,14,8.99,few clouds,CN
346,alyangula,-13.8483,136.4192,75.2,94,90,3.44,overcast clouds,AU
347,teahupoo,-17.8333,-149.2667,77.0,78,0,5.75,clear sky,PF
348,camacha,33.0833,-16.3333,64.4,68,40,6.91,scattered clouds,PT
349,hokitika,-42.7167,170.9667,53.11,83,99,3.65,overcast clouds,NZ
350,ulundi,-28.3352,31.4162,70.86,52,0,5.21,clear sky,ZA
351,puerto narino,-3.7703,-70.3831,75.2,100,40,3.44,scattered clouds,CO
352,birao,10.2849,22.7882,102.51,19,17,4.74,few clouds,CF
353,kavaratti,10.5669,72.642,85.46,68,99,2.1,overcast clouds,IN
354,pedernales,18.0384,-71.744,76.53,71,18,3.6,few clouds,DO
355,palm coast,29.585,-81.2078,71.01,94,1,4.85,mist,US
356,zvishavane,-20.3267,30.0665,66.69,50,75,10.11,broken clouds,ZW
357,skibbereen,51.55,-9.2667,50.0,93,90,34.52,overcast clouds,IE
358,kazachinskoye,57.6953,93.2761,52.29,65,100,13.94,overcast clouds,RU
359,karratha,-20.7377,116.8463,82.29,50,100,8.72,light rain,AU
360,kitui,-1.367,38.0106,77.74,57,91,9.42,light rain,KE
361,mingaora,34.7758,72.3625,87.03,28,22,4.41,few clouds,PK
362,lavrentiya,65.5833,-171.0,19.92,86,100,10.87,overcast clouds,RU
363,whitecourt,54.1502,-115.6855,29.41,86,28,3.94,scattered clouds,CA
364,carballo,43.213,-8.691,55.99,62,20,2.3,few clouds,ES
365,rovaniemi,66.5,25.7167,37.4,52,40,3.44,light rain,FI
366,northam,51.0333,-4.2167,52.0,76,100,17.0,overcast clouds,GB
367,port moresby,-9.4431,147.1797,78.8,89,40,19.57,scattered clouds,PG
368,taungdwingyi,20.0167,95.55,101.43,18,0,6.17,clear sky,MM
369,fort nelson,58.8053,-122.7002,41.0,45,40,6.91,scattered clouds,CA
370,sulmona,42.0479,13.9291,64.0,54,100,7.0,overcast clouds,IT
371,pangani,-5.4333,38.9667,80.24,80,91,15.48,moderate rain,TZ
372,leua,48.2156,18.6071,57.99,35,11,17.13,few clouds,SK
373,roald,62.5833,6.1333,44.6,61,40,8.05,scattered clouds,NO
374,nova venecia,-18.7106,-40.4006,67.32,87,84,4.0,broken clouds,BR
375,hobyo,5.3505,48.5268,88.03,59,100,8.61,light rain,SO
376,pinczow,50.5205,20.5265,44.01,85,100,8.01,overcast clouds,PL
377,padilla,3.2204,-76.3139,66.2,94,75,4.61,light rain,CO
378,pangnirtung,66.1451,-65.7125,25.25,84,76,5.77,broken clouds,CA
379,yichang,30.7144,111.2847,63.37,94,100,2.42,overcast clouds,CN
380,meulaboh,4.1363,96.1285,84.33,75,99,6.87,overcast clouds,ID
381,vao,-22.6667,167.4833,73.96,79,12,23.26,few clouds,NC
382,kissidougou,9.1848,-10.0999,80.56,64,99,1.7,overcast clouds,GN
383,sarakhs,36.5449,61.1577,75.2,41,100,2.3,overcast clouds,IR
384,mananjary,-21.2167,48.3333,80.4,66,87,4.88,overcast clouds,MG
385,aykhal,66.0,111.5,33.37,99,100,5.19,light snow,RU
386,ukhta,63.5671,53.6835,43.05,26,37,12.73,scattered clouds,RU
387,bocana de paiwas,12.7857,-85.1227,71.17,86,89,1.57,overcast clouds,NI
388,anadyr,64.75,177.4833,14.0,79,0,11.18,clear sky,RU
389,burnie,-41.0667,145.9167,52.0,79,100,7.0,overcast clouds,AU
390,bandarbeyla,9.4942,50.8122,87.69,58,95,10.49,overcast clouds,SO
391,sibolga,1.7427,98.7792,83.71,79,100,3.33,overcast clouds,ID
392,berlevag,70.8578,29.0864,33.8,64,20,8.05,few clouds,NO
393,pordim,43.3833,24.85,71.6,40,75,23.02,broken clouds,BG
394,onda,39.9667,-0.25,57.99,73,100,1.99,overcast clouds,ES
395,harper,4.375,-7.7169,84.81,71,100,9.22,overcast clouds,LR
396,gisborne,-38.6533,178.0042,53.01,90,6,1.99,clear sky,NZ
397,coruripe,-10.1256,-36.1756,76.21,82,75,7.11,broken clouds,BR
398,burton,42.9995,-83.6163,57.99,77,90,4.61,overcast clouds,US
399,jaguaribe,-5.8906,-38.6219,73.94,85,100,3.36,overcast clouds,BR
400,shrigonda,18.6167,74.6833,95.74,21,30,0.92,scattered clouds,IN
401,la ronge,55.1001,-105.2842,21.2,79,15,3.44,few clouds,CA
402,aasiaat,68.7098,-52.8699,30.78,59,0,21.74,clear sky,GL
403,sept-iles,50.2001,-66.3821,35.6,64,71,14.97,broken clouds,CA
404,yatou,37.15,122.3833,53.51,76,100,11.72,light rain,CN
405,port-cartier,50.0334,-66.8654,35.6,64,49,14.97,scattered clouds,CA
406,kavieng,-2.5744,150.7967,82.63,74,49,3.04,scattered clouds,PG
407,suntar,62.1444,117.6319,44.26,87,91,3.4,light rain,RU
408,vega de alatorre,20.0333,-96.6333,78.08,75,1,7.47,clear sky,MX
409,lorengau,-2.0226,147.2712,82.02,75,87,3.18,overcast clouds,PG
410,sapouy,11.5544,-1.7736,94.51,37,90,11.39,overcast clouds,BF
411,guerrero negro,27.9769,-114.0611,60.15,70,95,18.03,overcast clouds,MX
412,latung,5.5,120.8833,84.34,67,22,1.45,few clouds,PH
413,kaeo,-35.1,173.7833,54.0,90,2,2.3,clear sky,NZ
414,chumikan,54.7183,135.315,28.78,83,77,3.83,broken clouds,RU
415,marsh harbour,26.5412,-77.0636,76.24,83,99,13.82,overcast clouds,BS
416,sola,-13.8833,167.55,77.0,100,90,8.16,overcast clouds,VU
417,siverek,37.755,39.3167,84.2,20,0,6.91,clear sky,TR
418,swan river,52.1058,-101.2676,33.8,86,97,5.75,overcast clouds,CA
419,saint-francois,46.4154,3.9054,60.01,62,0,2.3,clear sky,FR
420,nishihara,26.1842,127.7558,73.0,60,20,12.66,few clouds,JP
421,seydi,39.4816,62.9137,89.46,13,95,14.0,overcast clouds,TM
422,jiaojiang,28.6803,121.4428,73.99,67,99,9.69,overcast clouds,CN
423,sabang,5.8933,95.3214,84.52,74,99,9.31,overcast clouds,ID
424,ughelli,5.4899,6.0074,86.94,69,98,6.04,moderate rain,NG
425,russell,32.3502,-85.1999,68.0,94,90,3.44,overcast clouds,US
426,panjakent,39.4952,67.6093,87.8,29,90,4.61,overcast clouds,TJ
427,raudeberg,61.9875,5.1352,44.6,61,40,8.05,scattered clouds,NO
428,hovd,48.0056,91.6419,50.56,15,0,7.96,clear sky,MN
429,kabare,-2.4683,28.8242,74.03,65,48,5.08,light rain,CD
430,ifanadiana,-21.3,47.6333,77.81,67,48,4.16,light rain,MG
431,antofagasta,-23.65,-70.4,55.4,94,0,6.91,clear sky,CL
432,carutapera,-1.195,-46.02,74.37,93,32,3.38,scattered clouds,BR
433,husavik,66.0449,-17.3389,32.0,64,90,3.44,overcast clouds,IS
434,bone,51.9669,12.1396,54.0,56,75,4.0,broken clouds,DE
435,kudahuvadhoo,2.6708,72.8944,84.69,69,52,7.61,broken clouds,MV
436,charters towers,-20.1,146.2667,75.87,57,99,7.18,overcast clouds,AU
437,mae hong son,19.3003,97.9685,100.4,34,40,3.44,scattered clouds,TH
438,dunnville,42.9001,-79.6163,53.6,82,100,4.61,overcast clouds,CA
439,el angel,0.6167,-77.9333,42.87,89,100,0.16,overcast clouds,EC
440,haines junction,60.7522,-137.5108,26.6,74,100,1.14,overcast clouds,CA
441,chita,52.0333,113.55,48.2,43,20,17.9,few clouds,RU
442,kabompo,-13.5927,24.2008,74.93,53,89,10.18,overcast clouds,ZM
443,moose factory,51.2585,-80.6094,21.2,93,1,3.44,clear sky,CA
444,novopavlovka,51.2172,109.2091,42.06,49,70,14.2,broken clouds,RU
445,celestun,20.8667,-90.4,78.96,74,97,17.43,overcast clouds,MX
446,santiago,-33.4569,-70.6483,59.0,87,100,0.56,overcast clouds,CL
447,longyearbyen,78.2186,15.6401,23.0,63,0,4.61,clear sky,SJ
448,oum hadjer,13.2954,19.6966,104.09,7,53,13.91,broken clouds,TD
449,bubaque,11.2833,-15.8333,78.17,58,18,10.31,few clouds,GW
450,surgut,61.25,73.4167,46.4,31,20,17.9,few clouds,RU
451,waipawa,-41.4122,175.5153,53.6,87,20,11.5,few clouds,NZ
452,mercedes,-34.6515,-59.4307,64.0,93,100,4.0,overcast clouds,AR
453,dingle,10.9995,122.6711,83.21,68,53,8.86,broken clouds,PH
454,sechura,-5.5569,-80.8222,71.24,75,99,9.91,overcast clouds,PE
455,san felipe,10.3399,-68.7425,70.93,96,98,2.01,overcast clouds,VE
456,solnechnyy,50.7214,136.6319,41.05,63,62,11.63,broken clouds,RU
457,wick,58.4333,-3.0833,44.6,70,20,9.22,few clouds,GB
458,beloha,-25.1667,45.05,76.14,47,34,13.0,scattered clouds,MG
459,christchurch,-43.5333,172.6333,53.01,93,0,2.3,clear sky,NZ
460,manono,-7.3,27.4167,83.61,55,55,10.92,broken clouds,CD
461,felanitx,39.4696,3.1483,68.0,45,20,13.8,few clouds,ES
462,stornoway,58.2093,-6.3865,46.99,71,20,13.8,few clouds,GB
463,dvinskoy,62.1535,45.1175,48.67,26,81,6.71,broken clouds,RU
464,humaita,-7.5061,-63.0208,71.67,99,99,0.11,overcast clouds,BR
465,college,64.8569,-147.8028,44.6,36,40,12.66,scattered clouds,US
466,hamburg,53.55,10.0,46.99,71,75,14.97,broken clouds,DE
467,angoche,-16.2325,39.9086,78.21,75,42,19.01,light rain,MZ
468,lasa,46.6166,10.7002,62.6,45,20,4.61,few clouds,IT
469,paso del macho,18.9667,-96.7167,75.99,59,2,1.99,clear sky,MX
470,manacapuru,-3.2997,-60.6206,75.2,94,75,1.28,moderate rain,BR
471,alexandria,31.2156,29.9553,87.8,22,0,5.75,clear sky,EG
472,mahajanga,-15.7167,46.3167,89.6,66,20,6.91,few clouds,MG
473,geraldton,-28.7667,114.6,71.6,60,78,9.22,broken clouds,AU
474,zeya,53.75,127.2667,48.96,55,100,7.02,overcast clouds,RU
475,likasi,-10.9814,26.7333,64.6,82,100,8.21,overcast clouds,CD
476,bairiki,1.3292,172.9752,82.4,83,20,8.05,few clouds,KI
477,strezhevoy,60.7333,77.5889,48.2,25,0,11.18,clear sky,RU
478,khulo,41.644,42.3129,86.0,73,0,5.75,clear sky,GE
479,kargil,34.5667,76.1,51.75,35,2,6.87,clear sky,IN
480,shenjiamen,29.9576,122.298,64.13,87,94,22.82,overcast clouds,CN
481,jasper,37.2001,-94.3502,60.8,88,1,5.75,clear sky,US
482,clyde river,70.4692,-68.5914,17.6,86,1,6.91,clear sky,CA
483,cam ranh,11.9214,109.1591,86.0,70,20,9.22,few clouds,VN
484,kruisfontein,-34.0033,24.7314,83.46,19,0,15.21,clear sky,ZA
485,matagami,49.7502,-77.6328,21.2,93,1,2.57,clear sky,CA
486,sukhumi,43.0033,41.0153,74.55,48,8,3.42,clear sky,GE
487,moranbah,-22.0016,148.0466,74.37,63,100,7.96,overcast clouds,AU
488,meadow lake,34.8014,-106.5436,60.8,13,20,4.61,few clouds,US
489,taoudenni,22.6783,-3.9836,93.2,27,97,10.96,overcast clouds,ML
490,nicoya,10.1483,-85.452,75.18,88,100,1.57,overcast clouds,CR
491,biak,-0.9131,122.8766,79.14,77,66,5.35,broken clouds,ID
492,abu kamal,34.4506,40.9171,92.1,13,5,11.07,clear sky,SY
493,victor harbor,-35.5667,138.6167,57.0,91,95,3.0,overcast clouds,AU
494,champerico,14.3,-91.9167,64.0,97,26,1.95,scattered clouds,GT
495,storozhevaya,43.8789,41.4514,73.44,38,7,5.73,clear sky,RU
496,andrelandia,-21.7397,-44.3092,53.56,94,0,1.32,clear sky,BR
497,yishui,35.7847,118.6281,59.0,82,100,5.91,moderate rain,CN
498,fene,43.45,-8.15,57.0,62,20,2.3,few clouds,ES
499,winnemucca,40.973,-117.7357,30.2,69,1,5.75,clear sky,US
500,zambezi,-13.5432,23.1047,73.87,59,92,10.58,overcast clouds,ZM
501,sioux lookout,50.1001,-91.917,41.0,75,90,2.3,overcast clouds,CA
502,yar-sale,66.8333,70.8333,33.35,82,71,16.51,broken clouds,RU
503,alta floresta,-9.8756,-56.0861,67.37,97,4,2.82,clear sky,BR
504,mexico,15.0646,120.7198,89.6,55,75,13.8,broken clouds,PH
505,san lawrenz,36.0553,14.204,71.6,56,0,16.11,clear sky,MT
506,champasak,14.75,106.0,96.8,46,40,2.3,scattered clouds,LA
507,changji,44.0167,87.3167,68.0,11,0,6.71,clear sky,CN
508,qinhuangdao,39.9317,119.5883,54.75,68,82,14.61,broken clouds,CN
509,envira,-7.3,-70.2167,68.76,97,93,1.81,overcast clouds,BR
510,umtata,-31.5889,28.7844,73.4,38,0,2.3,clear sky,ZA
511,moelv,60.9333,10.7,39.0,97,100,1.88,overcast clouds,NO
512,talcahuano,-36.7167,-73.1167,53.6,94,75,6.91,broken clouds,CL
513,kouango,4.9934,19.9619,95.72,34,100,6.46,overcast clouds,CF
514,port blair,11.6667,92.75,86.0,79,40,6.91,scattered clouds,IN
515,alofi,-19.0595,-169.9187,75.2,83,100,13.8,overcast clouds,NU
516,sasni,27.7167,78.0833,101.82,14,37,14.2,scattered clouds,IN
517,mezen,65.8522,44.24,41.29,36,30,9.95,scattered clouds,RU
518,jiuquan,39.7432,98.5174,59.25,10,26,16.73,scattered clouds,CN
519,tarko-sale,64.9225,77.785,34.36,90,19,13.29,few clouds,RU
520,hay river,60.8156,-115.7999,23.0,63,91,3.44,overcast clouds,CA
521,bargi,22.9833,79.8667,96.8,24,40,11.5,scattered clouds,IN
522,santa isabel do rio negro,-0.4139,-65.0192,69.78,99,91,2.06,overcast clouds,BR
523,marabba,12.35,32.1833,94.75,29,98,9.66,overcast clouds,SD
524,nabire,-3.3667,135.4833,78.67,87,83,3.13,broken clouds,ID
525,karatau,43.1667,70.4667,77.7,33,12,9.51,few clouds,KZ
526,salalah,17.0151,54.0924,87.8,74,75,11.5,broken clouds,OM
527,divnomorskoye,44.5011,38.1353,68.92,59,73,10.78,broken clouds,RU
528,ferkessedougou,9.6,-5.2,88.65,49,100,7.58,overcast clouds,CI
529,launceston,-41.45,147.1667,50.0,81,90,17.27,moderate rain,AU
530,barranca,-10.75,-77.7667,65.34,87,75,0.87,broken clouds,PE
531,adeje,28.1227,-16.726,72.0,49,20,19.57,few clouds,ES
532,coahuayana,18.7333,-103.6833,66.25,47,1,3.96,clear sky,MX
533,kimbe,-5.5502,150.1429,79.11,85,39,1.92,scattered clouds,PG
534,sungaipenuh,-2.0833,101.3833,71.87,91,98,0.54,overcast clouds,ID
535,madingou,-4.1536,13.55,85.6,66,30,3.76,scattered clouds,CG
536,sovik,65.9333,12.4667,41.0,48,20,8.05,few clouds,NO
537,ekhabi,53.5102,142.9671,29.93,88,100,18.7,overcast clouds,RU
538,warrington,53.3925,-2.5802,50.0,87,75,13.8,moderate rain,GB
539,razdolnaya,45.3799,39.5557,84.0,41,0,2.24,clear sky,RU
540,teguise,29.0605,-13.564,71.6,49,20,17.27,few clouds,ES
541,ahipara,-35.1667,173.1667,53.87,81,0,3.02,clear sky,NZ
542,sao felix do xingu,-6.6447,-51.995,69.03,98,27,1.48,scattered clouds,BR
543,katherine,-14.4667,132.2667,80.6,47,40,6.91,scattered clouds,AU
544,grand gaube,-20.0064,57.6608,84.0,76,16,7.0,few clouds,MU
545,kamaishi,39.2667,141.8833,51.8,58,75,14.97,broken clouds,JP
546,mulchen,-37.7167,-72.2333,50.61,98,100,0.76,light rain,CL
547,bilibino,68.0546,166.4372,8.47,91,7,5.28,clear sky,RU
548,neyshabur,36.2133,58.7958,64.04,54,100,3.53,overcast clouds,IR
549,nelson bay,-32.7167,152.15,66.2,88,0,9.22,clear sky,AU
550,tyukalinsk,55.8732,72.1967,50.92,68,100,8.46,light rain,RU
551,mandalgovi,45.7625,106.2708,44.22,20,100,19.71,overcast clouds,MN
552,jimo,36.3897,120.4622,59.0,72,20,13.42,light rain,CN
553,wanning,18.8003,110.3967,82.0,71,15,9.24,few clouds,CN
554,mersin,36.862,34.6509,82.4,51,0,4.61,clear sky,TR
555,asfi,32.2994,-9.2372,64.8,56,99,14.47,overcast clouds,MA
556,oga,46.4631,10.347,51.01,38,0,5.75,clear sky,IT
557,nador,35.174,-2.9287,62.6,82,75,10.36,broken clouds,MA
558,amazar,53.858,120.875,41.9,92,100,18.25,moderate rain,RU
559,jawa,31.8525,35.9393,89.6,14,4,12.66,clear sky,JO
